City_ID,City,Country,Date,Lat,Lng,Max Temp,Humidity,Cloudiness,Wind Speed
0,Hilo,US,2022-06-28 06:02:47,19.7297,-155.09,74.93,81,40,3.0
1,Ola,RU,2022-06-28 06:02:47,59.5833,151.2833,68.14,82,86,8.57
2,Rikitea,PF,2022-06-28 06:02:10,-23.1203,-134.9692,73.38,71,14,8.9
3,Rethimnon,GR,2022-06-28 06:02:48,35.3647,24.4714,82.2,64,0,11.59
4,Ushuaia,AR,2022-06-28 06:01:44,-54.8,-68.3,35.56,89,99,8.28
5,Las Vegas,US,2022-06-28 06:02:27,36.175,-115.1372,95.68,18,0,5.75
6,Saskylakh,RU,2022-06-28 06:02:48,71.9167,114.0833,48.92,46,97,5.32
7,Bom Jesus Da Lapa,BR,2022-06-28 06:01:35,-13.255,-43.4181,62.42,68,0,5.79
8,Sayyan,YE,2022-06-28 06:02:49,15.1718,44.3244,75.94,18,54,10.56
9,Lorengau,PG,2022-06-28 06:02:49,-2.0226,147.2712,84.94,67,57,8.93
10,Vaini,TO,2022-06-28 06:02:49,-21.2,-175.2,75.63,80,19,16.64
11,Barrow,US,2022-06-28 06:02:50,71.2906,-156.7887,44.62,93,100,10.36
12,Mamakan,RU,2022-06-28 06:02:50,57.8161,114.0028,84.51,48,76,7.49
13,Tiksi,RU,2022-06-28 06:02:50,71.6872,128.8694,37.08,81,98,3.06
14,Faanui,PF,2022-06-28 06:02:51,-16.4833,-151.75,80.47,67,0,20.54
15,Ust-Uda,RU,2022-06-28 06:02:51,54.1742,103.0304,89.31,33,19,9.53
16,Kozlovo,RU,2022-06-28 06:02:51,56.5167,36.2667,71.17,55,8,9.13
17,Iqaluit,CA,2022-06-28 06:02:52,63.7506,-68.5145,40.69,80,100,4.0
18,Shenjiamen,CN,2022-06-28 06:02:52,29.9576,122.298,77.45,91,100,22.91
19,North Platte,US,2022-06-28 06:02:52,41.1239,-100.7654,63.12,61,0,11.99
20,Aviles,ES,2022-06-28 06:02:53,43.5547,-5.9248,58.37,86,0,5.75
21,Busselton,AU,2022-06-28 06:01:55,-33.65,115.3333,61.39,52,70,7.2
22,Kavieng,PG,2022-06-28 06:02:53,-2.5744,150.7967,85.06,65,90,11.61
23,Upernavik,GL,2022-06-28 06:02:53,72.7868,-56.1549,36.46,85,28,3.18
24,Jiayuguan,CN,2022-06-28 06:02:53,39.8167,98.3,90.72,10,18,9.22
25,Sitka,US,2022-06-28 05:58:59,57.0531,-135.33,56.97,93,7,4.32
26,Santa Rosa,PH,2022-06-28 05:59:55,14.3122,121.1114,90.1,76,100,6.67
27,Cape Town,ZA,2022-06-28 05:58:44,-33.9258,18.4232,62.91,51,0,10.36
28,Yangambi,CD,2022-06-28 05:59:13,0.8102,24.4336,73.65,88,98,1.74
29,Mataura,NZ,2022-06-28 06:02:54,-46.1927,168.8643,39.47,93,40,2.08
30,New Norfolk,AU,2022-06-28 06:02:54,-42.7826,147.0587,57.92,79,100,3.0
31,Port Alfred,ZA,2022-06-28 06:02:55,-33.5906,26.891,59.0,48,0,8.7
32,Ilulissat,GL,2022-06-28 06:02:55,69.2167,-51.1,42.82,75,4,2.3
33,Esperance,AU,2022-06-28 06:02:55,-33.8667,121.9,59.47,63,69,16.75
34,Antalaha,MG,2022-06-28 06:02:56,-14.9003,50.2788,71.8,80,86,17.81
35,Port Elizabeth,ZA,2022-06-28 06:02:56,-33.918,25.5701,55.31,68,0,5.75
36,Punta Arenas,CL,2022-06-28 06:00:08,-53.15,-70.9167,39.27,76,100,3.89
37,Victoria,HK,2022-06-28 06:00:10,22.2855,114.1577,93.25,65,97,5.99
38,Te Anau,NZ,2022-06-28 06:02:56,-45.4167,167.7167,35.8,92,12,1.28
39,Norman Wells,CA,2022-06-28 06:02:57,65.282,-126.8329,66.06,51,97,5.55
40,Pevek,RU,2022-06-28 05:58:31,69.7008,170.3133,43.21,62,99,6.35
41,Torbay,CA,2022-06-28 05:59:49,47.6666,-52.7314,61.88,91,75,16.11
42,Severo-Kurilsk,RU,2022-06-28 06:02:57,50.6789,156.125,46.27,96,100,13.65
43,Lahaina,US,2022-06-28 06:02:17,20.8783,-156.6825,76.8,85,99,9.78
44,Ostrovnoy,RU,2022-06-28 06:03:58,68.0531,39.5131,45.39,71,4,3.4
45,Safford,US,2022-06-28 06:03:58,32.834,-109.7076,78.12,94,100,11.5
46,Longyearbyen,SJ,2022-06-28 06:03:58,78.2186,15.6401,44.44,81,0,1.14
47,Chokurdakh,RU,2022-06-28 06:03:59,70.6333,147.9167,50.22,59,100,6.91
48,Poya,NC,2022-06-28 06:03:59,-21.35,165.15,73.26,84,99,5.44
49,Yellowknife,CA,2022-06-28 06:00:08,62.456,-114.3525,59.56,51,56,10.0
50,Gewane,ET,2022-06-28 06:03:59,10.1664,40.6453,88.11,35,89,18.59
51,Cabo San Lucas,MX,2022-06-28 06:00:27,22.8909,-109.9124,83.61,79,37,3.0
52,Ponta Do Sol,PT,2022-06-28 06:04:00,32.6667,-17.1,66.83,66,20,7.14
53,Biak,ID,2022-06-28 06:04:00,-0.9131,122.8766,77.29,89,96,11.18
54,Vardo,NO,2022-06-28 06:04:01,70.3705,31.1107,51.78,82,0,10.36
55,Kiruna,SE,2022-06-28 06:04:01,67.8557,20.2251,68.92,68,10,6.91
56,Aksha,RU,2022-06-28 06:04:01,50.2814,113.2867,90.57,24,0,4.38
57,Tual,ID,2022-06-28 06:04:02,-5.6667,132.75,81.12,78,44,7.23
58,Portland,US,2022-06-28 05:59:13,45.5234,-122.6762,73.09,48,0,4.0
59,Kysyl-Syr,RU,2022-06-28 06:04:02,63.8986,122.7617,63.68,41,90,6.51
60,Bluff,NZ,2022-06-28 06:03:27,-46.6,168.3333,39.79,69,3,9.4
61,Port Blair,IN,2022-06-28 06:04:03,11.6667,92.75,86.04,74,40,6.91
62,Sauce,UY,2022-06-28 06:04:03,-34.6469,-56.0628,44.22,80,100,2.19
63,Clyde River,CA,2022-06-28 06:04:03,70.4692,-68.5914,32.23,100,100,6.91
64,Hermanus,ZA,2022-06-28 06:04:04,-34.4187,19.2345,59.74,59,0,9.13
65,Bogense,DK,2022-06-28 06:04:04,55.5669,10.0886,59.41,85,52,6.33
66,Atuona,PF,2022-06-28 06:02:12,-9.8,-139.0333,77.83,78,19,18.37
67,Medveda,RU,2022-06-28 06:04:04,56.5081,92.4078,66.18,52,96,14.16
68,Mapiripan,CO,2022-06-28 06:04:05,2.8892,-72.1256,70.95,89,12,1.21
69,Butaritari,KI,2022-06-28 06:04:05,3.0707,172.7902,82.36,77,92,12.39
70,Provideniya,RU,2022-06-28 06:03:44,64.3833,-173.3,45.03,96,100,8.28
71,Cayenne,GF,2022-06-28 06:04:05,4.9333,-52.3333,76.08,1,0,0.0
72,Jamestown,US,2022-06-28 06:00:04,42.097,-79.2353,58.71,95,27,4.41
73,Yermolayevo,RU,2022-06-28 06:04:06,52.7167,55.8,55.17,67,84,15.88
74,Airai,TL,2022-06-28 06:04:06,-8.9266,125.4092,67.01,69,82,5.23
75,Ancud,CL,2022-06-28 06:04:07,-41.8697,-73.8203,51.22,89,100,30.53
76,Hasaki,JP,2022-06-28 06:04:07,35.7333,140.8333,90.0,78,81,12.39
77,Albany,US,2022-06-28 06:02:40,42.6001,-73.9662,58.69,87,2,5.12
78,Saint-Junien,FR,2022-06-28 06:04:07,45.8833,0.9,56.84,80,26,2.44
79,Dikson,RU,2022-06-28 06:04:08,73.5069,80.5464,32.25,85,100,15.82
80,Puerto Ayora,EC,2022-06-28 06:04:08,-0.7393,-90.3518,68.56,98,62,5.01
81,Fasa,IR,2022-06-28 06:04:08,28.9383,53.6482,96.28,9,9,2.42
82,Cherskiy,RU,2022-06-28 06:04:09,68.75,161.3,47.61,76,100,13.78
83,Pisco,PE,2022-06-28 06:04:09,-13.7,-76.2167,60.85,82,23,5.75
84,Jian,CN,2022-06-28 06:04:09,27.1172,114.9793,88.97,66,100,9.51
85,Nanortalik,GL,2022-06-28 06:04:10,60.1432,-45.2371,44.06,85,100,15.19
86,Gizo,SB,2022-06-28 06:04:10,-8.103,156.8419,81.21,73,91,2.24
87,San Patricio,US,2022-06-28 06:04:10,28.017,-97.5169,83.84,87,92,5.19
88,Georgetown,MY,2022-06-28 05:59:46,5.4112,100.3354,86.95,77,20,7.0
89,Hithadhoo,MV,2022-06-28 06:01:12,-0.6,73.0833,83.35,71,73,8.08
90,Pravia,ES,2022-06-28 06:05:11,43.4906,-6.1508,55.67,88,0,5.75
91,Namibe,AO,2022-06-28 06:05:11,-15.1961,12.1522,66.94,57,2,4.97
92,Den Helder,NL,2022-06-28 06:05:11,52.9599,4.7593,62.98,70,3,8.05
93,Tuktoyaktuk,CA,2022-06-28 06:05:12,69.4541,-133.0374,46.56,71,100,2.93
94,Kapaa,US,2022-06-28 06:05:12,22.0752,-159.319,80.58,82,40,12.66
95,Hobart,AU,2022-06-28 06:02:43,-42.8794,147.3294,58.26,65,75,8.05
96,Tuatapere,NZ,2022-06-28 06:05:12,-46.1333,167.6833,38.8,84,6,2.75
97,Goderich,CA,2022-06-28 06:05:12,43.7501,-81.7165,55.9,79,2,8.39
98,Nikolskoye,RU,2022-06-28 06:05:13,59.7035,30.7861,75.87,50,72,7.43
99,Jasper,US,2022-06-28 06:00:39,37.2001,-94.3502,67.68,72,75,5.84
100,Rio Grande,BR,2022-06-28 06:05:13,-32.035,-52.0986,54.95,99,100,2.01
101,Ankang,CN,2022-06-28 06:05:14,32.68,109.0172,97.21,32,0,1.45
102,Bredasdorp,ZA,2022-06-28 06:02:37,-34.5322,20.0403,54.25,60,0,6.17
103,Saint-Georges,GD,2022-06-28 06:01:26,12.0564,-61.7485,79.18,82,75,16.02
104,Kodiak,US,2022-06-28 06:05:14,57.79,-152.4072,60.31,72,0,4.61
105,San Cristobal,VE,2022-06-28 06:05:15,7.7669,-72.225,64.56,93,27,1.14
106,Izhma,RU,2022-06-28 06:05:15,65.0083,53.9113,51.44,47,85,14.7
107,Grand-Santi,GF,2022-06-28 06:05:15,4.25,-54.3833,72.18,100,100,2.89
108,Kirakira,SB,2022-06-28 06:05:15,-10.4544,161.9205,79.18,83,100,7.2
109,Chilmari,BD,2022-06-28 06:05:16,25.5559,89.6715,80.62,86,100,9.35
110,Hambantota,LK,2022-06-28 06:05:16,6.1241,81.1185,91.74,58,20,12.66
111,Svetlyy,RU,2022-06-28 06:05:16,54.675,20.1347,75.25,74,2,10.47
112,Beringovskiy,RU,2022-06-28 06:05:17,63.05,179.3167,51.06,76,84,16.04
113,Cheney,US,2022-06-28 06:05:17,47.4874,-117.5758,73.94,69,0,2.8
114,Souillac,MU,2022-06-28 06:02:47,-20.5167,57.5167,69.44,68,97,19.48
115,Oum Hadjer,TD,2022-06-28 06:05:17,13.2954,19.6966,82.85,58,93,12.68
116,Yichun,CN,2022-06-28 06:05:18,47.7,128.9,74.79,69,82,11.77
117,Porto Velho,BR,2022-06-28 06:05:18,-8.7619,-63.9039,69.85,94,0,0.0
118,Gornopravdinsk,RU,2022-06-28 06:05:18,60.05,69.9,57.96,49,98,8.77
119,Carnarvon,AU,2022-06-28 06:05:18,-24.8667,113.6333,74.37,30,0,15.79
120,Cap-Aux-Meules,CA,2022-06-28 06:05:19,47.3821,-61.8597,61.65,91,98,28.39
121,Castro,BR,2022-06-28 06:05:19,-24.7911,-50.0119,47.91,94,41,2.17
122,Kahului,US,2022-06-28 06:05:19,20.8947,-156.47,77.02,74,20,12.66
123,Pacific Grove,US,2022-06-28 06:05:20,36.6177,-121.9166,60.42,95,100,8.99
124,Boyolangu,ID,2022-06-28 06:05:20,-8.1181,111.8935,81.27,63,86,11.56
125,Kapoeta,SS,2022-06-28 06:05:20,4.7717,33.5903,81.12,41,97,17.96
126,Saint-Philippe,RE,2022-06-28 06:05:20,-21.3585,55.7679,72.99,69,85,15.5
127,Eastbourne,GB,2022-06-28 06:04:27,50.7687,0.2845,62.19,83,11,5.01
128,La Plata,AR,2022-06-28 06:01:12,-34.9215,-57.9545,50.04,67,100,6.2
129,Saint-Joseph,RE,2022-06-28 06:05:21,-21.3667,55.6167,71.98,69,72,13.94
130,Saint Paul,US,2022-06-28 06:01:21,44.9444,-93.0933,71.83,55,0,5.75
131,Pochutla,MX,2022-06-28 06:05:21,15.7432,-96.4661,76.82,92,16,4.29
132,Fortuna,US,2022-06-28 06:05:22,40.5982,-124.1573,56.93,88,17,1.99
133,Yulara,AU,2022-06-28 06:05:22,-25.2406,130.9889,62.89,29,99,11.52
134,Bilma,NE,2022-06-28 06:06:22,18.6853,12.9164,90.59,13,3,6.58
135,Kattivakkam,IN,2022-06-28 06:06:22,13.2167,80.3167,89.69,67,95,2.37
136,Lakselv,NO,2022-06-28 06:06:23,70.0513,24.9718,75.02,57,0,17.27
137,Nome,US,2022-06-28 06:06:23,64.5011,-165.4064,47.16,93,100,5.75
138,Casino,AU,2022-06-28 06:06:23,-28.8667,153.05,60.57,75,69,7.63
139,Lebu,CL,2022-06-28 06:01:53,-37.6167,-73.65,53.58,90,99,18.9
140,Mahebourg,MU,2022-06-28 06:06:24,-20.4081,57.7,74.25,64,78,19.75
141,Gat,IL,2022-06-28 06:03:04,31.61,34.7642,83.39,100,2,4.38
142,Amuntai,ID,2022-06-28 06:06:24,-2.4177,115.2494,80.02,91,88,1.79
143,Berdigestyakh,RU,2022-06-28 06:06:24,62.0989,126.6992,62.15,68,100,6.93
144,East London,ZA,2022-06-28 06:06:25,-33.0153,27.9116,56.71,40,0,6.2
145,Moron,AR,2022-06-28 06:06:25,-34.6534,-58.6198,51.55,80,100,5.61
146,Arroyo,ES,2022-06-28 06:06:25,41.6096,-4.7969,50.59,85,0,5.75
147,Salalah,OM,2022-06-28 06:06:25,17.0151,54.0924,82.29,86,100,11.5
148,Rawson,AR,2022-06-28 06:06:26,-43.3002,-65.1023,45.43,66,100,9.6
149,Lavrentiya,RU,2022-06-28 06:06:26,65.5833,-171.0,44.49,92,100,11.18
150,Bahia Honda,CU,2022-06-28 06:06:26,22.9036,-83.1592,76.19,85,74,3.33
151,Grobina,LV,2022-06-28 06:06:27,56.5352,21.1678,78.58,61,0,3.44
152,Gweta,BW,2022-06-28 06:06:27,-20.1833,25.2333,55.06,68,85,16.98
153,Audru,EE,2022-06-28 06:06:27,58.4086,24.3739,78.85,65,75,5.75
154,Broken Hill,AU,2022-06-28 06:06:28,-31.95,141.4333,55.72,37,0,4.85
155,Tshikapa,CD,2022-06-28 06:06:28,-6.4167,20.8,68.76,42,48,3.74
156,Klyuchi,RU,2022-06-28 06:06:28,52.2667,79.1667,68.94,40,32,11.14
157,Thompson,CA,2022-06-28 06:06:28,55.7435,-97.8558,42.57,79,64,5.66
158,Ribeira Grande,PT,2022-06-28 06:06:29,38.5167,-28.7,64.6,82,56,8.23
159,Tabou,CI,2022-06-28 06:06:29,4.423,-7.3528,77.29,82,100,7.07
160,Aanekoski,FI,2022-06-28 06:06:29,62.6946,25.818,71.85,91,26,8.9
161,Takoradi,GH,2022-06-28 06:06:30,4.8845,-1.7554,75.33,92,100,4.12
162,Bontang,ID,2022-06-28 06:06:30,0.1333,117.5,85.12,71,71,7.25
163,Yuyao,CN,2022-06-28 06:06:30,30.05,121.1494,96.76,47,100,8.01
164,Mbuji-Mayi,CD,2022-06-28 06:01:59,-6.15,23.6,71.4,42,43,9.78
165,Windhoek,NA,2022-06-28 06:03:59,-22.5594,17.0832,46.11,74,8,8.99
166,Wanning,CN,2022-06-28 06:06:31,18.8003,110.3967,91.35,61,15,13.65
167,Mach,PK,2022-06-28 06:06:31,29.8637,67.3298,100.45,14,13,6.98
168,Bumba,CD,2022-06-28 06:06:31,2.1833,22.4667,72.81,91,100,4.0
169,Mayo,US,2022-06-28 06:06:32,38.8876,-76.5119,73.35,61,0,12.66
170,Katsuura,JP,2022-06-28 06:06:32,35.1333,140.3,80.91,76,95,18.12
171,Qaanaaq,GL,2022-06-28 06:06:32,77.484,-69.3632,40.95,72,14,1.9
172,Tasiilaq,GL,2022-06-28 06:06:32,65.6145,-37.6368,39.36,74,39,4.72
173,La Ronge,CA,2022-06-28 06:06:33,55.1001,-105.2842,45.99,66,50,4.81
174,Lalmohan,BD,2022-06-28 06:06:33,22.3384,90.7419,86.47,71,97,14.0
175,Hoi An,VN,2022-06-28 06:06:33,15.8794,108.335,94.96,56,99,10.78
176,Zaranj,AF,2022-06-28 06:02:17,30.9667,61.8833,107.56,7,0,9.28
177,Kyra,RU,2022-06-28 06:06:34,49.5776,111.9753,85.98,33,2,5.28
178,Mandalgovi,MN,2022-06-28 06:06:34,45.7625,106.2708,77.63,29,23,0.74
179,Marsa Matruh,EG,2022-06-28 06:06:34,31.3525,27.2453,79.36,61,0,17.56
180,Verkh-Tula,RU,2022-06-28 06:06:35,54.8839,82.7762,64.18,63,75,15.66
181,Sao Filipe,CV,2022-06-28 06:07:35,14.8961,-24.4956,73.33,80,40,10.27
182,Saint George,US,2022-06-28 06:07:35,37.1041,-113.5841,88.39,25,0,3.44
183,Mar Del Plata,AR,2022-06-28 06:07:36,-38.0023,-57.5575,47.08,69,0,3.44
184,Bethel,US,2022-06-28 06:07:36,41.3712,-73.414,64.27,81,0,0.0
185,Puerto Ayacucho,VE,2022-06-28 06:07:36,5.6639,-67.6236,72.77,94,100,3.53
186,Nizwa,OM,2022-06-28 06:07:37,22.9333,57.5333,94.71,38,21,8.03
187,Srednekolymsk,RU,2022-06-28 06:07:37,67.45,153.6833,66.27,43,100,3.85
188,Aksarka,RU,2022-06-28 06:07:37,66.5606,67.7975,55.27,50,100,30.22
189,Henties Bay,NA,2022-06-28 06:07:37,-22.116,14.2845,70.75,39,0,20.92
190,Kendal,GB,2022-06-28 06:06:01,54.3268,-2.7476,57.11,82,100,6.85
191,Talnakh,RU,2022-06-28 06:04:58,69.4865,88.3972,65.21,29,45,3.85
192,Avarua,CK,2022-06-28 06:07:38,-21.2078,-159.775,75.25,94,75,18.41
193,Khatanga,RU,2022-06-28 06:07:38,71.9667,102.5,56.73,36,9,5.77
194,Inuvik,CA,2022-06-28 06:07:38,68.3499,-133.7218,67.5,49,100,8.75
195,Vestmanna,FO,2022-06-28 06:07:39,62.1564,-7.1664,49.12,93,75,17.27
196,Huarmey,PE,2022-06-28 06:07:39,-10.0681,-78.1522,62.15,88,45,9.26
197,Waverly,US,2022-06-28 06:06:25,42.7392,-84.6208,51.94,84,0,0.0
198,Dunedin,NZ,2022-06-28 06:06:54,-45.8742,170.5036,43.81,82,85,1.99
199,Ratnagiri,IN,2022-06-28 06:07:40,16.9833,73.3,83.71,78,93,12.12
200,Talara,PE,2022-06-28 06:07:40,-4.5772,-81.2719,63.1,85,4,13.06
201,Port Hedland,AU,2022-06-28 06:07:40,-20.3167,118.5667,80.65,22,0,14.97
202,Kaitangata,NZ,2022-06-28 06:07:40,-46.2817,169.8464,42.53,86,75,3.69
203,Port-Gentil,GA,2022-06-28 06:03:25,-0.7193,8.7815,71.96,89,95,12.37
204,Richards Bay,ZA,2022-06-28 06:07:41,-28.783,32.0377,61.45,72,53,3.38
205,Maralal,KE,2022-06-28 06:07:41,1.0968,36.698,61.95,60,49,6.13
206,Shangrao,CN,2022-06-28 06:07:41,28.4532,117.9686,92.68,60,100,8.12
207,Ueckermunde,DE,2022-06-28 06:07:42,53.7379,14.0447,68.56,93,100,11.59
208,Alyangula,AU,2022-06-28 06:07:42,-13.8483,136.4192,76.51,82,95,16.55
209,Debre Sina,ET,2022-06-28 06:07:42,9.85,39.7667,63.86,52,85,1.68
210,Okhotsk,RU,2022-06-28 06:07:42,59.3833,143.3,52.59,87,48,13.4
211,Pucallpa,PE,2022-06-28 06:07:43,-8.3791,-74.5539,69.28,77,1,1.5
212,Price,US,2022-06-28 06:07:36,39.5994,-110.8107,68.11,36,0,8.05
213,Evensk,RU,2022-06-28 06:07:43,61.95,159.2333,50.97,83,44,10.51
214,Harindanga,IN,2022-06-28 06:07:43,22.0383,88.3214,91.76,56,81,13.44
215,Starosubkhangulovo,RU,2022-06-28 06:07:44,53.1031,57.4423,60.48,51,69,9.44
216,Ust-Maya,RU,2022-06-28 06:07:44,60.4167,134.5333,77.9,49,87,7.7
217,Vanimo,PG,2022-06-28 06:07:44,-2.6741,141.3028,83.93,68,100,9.82
218,Flinders,AU,2022-06-28 06:07:45,-34.5833,150.8552,61.18,64,75,4.0
219,Road Town,VG,2022-06-28 06:07:45,18.4167,-64.6167,80.69,75,99,18.99
220,Uyuni,BO,2022-06-28 06:07:45,-20.4597,-66.825,34.72,64,20,9.19
221,Arraial Do Cabo,BR,2022-06-28 06:07:46,-22.9661,-42.0278,66.15,73,10,16.35
222,Krzeszowice,PL,2022-06-28 06:07:46,50.1425,19.6322,79.81,68,0,2.3
223,Bengkulu,ID,2022-06-28 06:07:46,-3.8004,102.2655,84.29,66,87,6.91
224,Anadyr,RU,2022-06-28 06:07:46,64.75,177.4833,54.1,76,40,15.66
225,Lasa,IT,2022-06-28 06:08:47,46.6166,10.7002,68.68,81,62,2.15
226,Grindavik,IS,2022-06-28 06:08:47,63.8424,-22.4338,48.67,93,0,4.61
227,Bilibino,RU,2022-06-28 06:08:47,68.0546,166.4372,49.93,59,100,6.6
228,Atyrau,KZ,2022-06-28 06:08:48,47.1167,51.8833,82.42,26,0,17.9
229,Korla,CN,2022-06-28 06:08:48,41.7597,86.1469,97.57,13,5,7.54
230,San Andres,CO,2022-06-28 06:08:48,12.5847,-81.7006,82.42,78,20,10.36
231,Mareeba,AU,2022-06-28 06:08:49,-17.0,145.4333,68.72,81,68,6.91
232,Lichuan,CN,2022-06-28 06:08:49,30.3,108.85,83.5,47,84,3.49
233,Osypenko,UA,2022-06-28 06:08:49,46.9136,36.8253,74.16,47,100,12.17
234,Aksu,CN,2022-06-28 06:08:49,41.1231,80.2644,93.83,16,29,4.92
235,Solnechnyy,RU,2022-06-28 06:08:50,50.7214,136.6319,78.58,55,53,6.8
236,Creel,MX,2022-06-28 06:08:50,27.75,-107.6333,55.8,84,100,6.71
237,Havelock,US,2022-06-28 06:08:50,34.8791,-76.9013,79.97,80,100,3.0
238,Barth,DE,2022-06-28 06:08:51,54.3635,12.7249,68.05,92,100,12.33
239,Taonan,CN,2022-06-28 06:08:51,45.3333,122.7833,82.36,55,100,13.04
240,Deputatskiy,RU,2022-06-28 06:08:51,69.3,139.9,35.64,100,100,3.67
241,Krasnoselkup,RU,2022-06-28 06:08:52,65.7,82.4667,64.33,71,99,14.12
242,Brenham,US,2022-06-28 06:05:38,30.1669,-96.3977,76.91,46,0,0.0
243,Majene,ID,2022-06-28 06:08:52,-3.5403,118.9707,84.04,72,56,10.69
244,Narsaq,GL,2022-06-28 06:08:52,60.9167,-46.05,46.62,71,100,1.3
245,Pinawa,CA,2022-06-28 06:08:52,50.1489,-95.8811,50.76,95,66,5.48
246,Pergamino,AR,2022-06-28 06:08:53,-33.89,-60.5736,46.18,82,100,1.01
247,Luderitz,NA,2022-06-28 06:08:53,-26.6481,15.1594,69.06,39,0,23.71
248,Colares,PT,2022-06-28 06:08:53,38.7992,-9.4469,62.8,71,0,28.99
249,Avera,US,2022-06-28 06:08:40,33.194,-82.5271,75.54,81,96,4.32
250,Haines Junction,CA,2022-06-28 06:08:54,60.7522,-137.5108,64.92,59,96,1.3
251,Mount Gambier,AU,2022-06-28 06:08:54,-37.8333,140.7667,53.47,56,100,8.72
252,Bonnyville,CA,2022-06-28 06:05:27,54.2668,-110.735,45.39,82,58,4.65
253,Opuwo,NA,2022-06-28 06:08:54,-18.0607,13.84,51.04,56,2,10.0
254,Iracoubo,GF,2022-06-28 06:08:54,5.4802,-53.2011,74.57,93,100,9.57
255,Zhigansk,RU,2022-06-28 06:07:52,66.7697,123.3711,55.8,36,78,17.43
256,Campos Sales,BR,2022-06-28 06:07:05,-7.0744,-40.3761,65.93,80,0,13.53
257,Halifax,CA,2022-06-28 06:05:33,44.6453,-63.5724,64.35,98,100,11.99
258,Koygorodok,RU,2022-06-28 06:08:55,60.445,50.9968,45.39,64,74,11.61
259,Najran,SA,2022-06-28 06:08:55,17.4924,44.1277,90.41,16,54,8.03
260,Halmstad,SE,2022-06-28 06:08:56,56.6745,12.8568,62.02,93,40,9.22
261,Diffa,NE,2022-06-28 06:08:56,13.3154,12.6113,82.89,45,81,11.43
262,Dingle,PH,2022-06-28 06:08:56,10.9995,122.6711,82.24,81,95,13.58
263,Nerchinskiy Zavod,RU,2022-06-28 06:08:57,51.3088,119.61,84.99,35,15,7.23
264,Vestmannaeyjar,IS,2022-06-28 06:08:57,63.4427,-20.2734,50.59,87,100,10.89
265,Yerofey Pavlovich,RU,2022-06-28 06:08:57,53.9667,121.9667,82.74,40,90,1.88
266,Sorland,NO,2022-06-28 06:08:58,67.667,12.6934,60.66,77,0,24.61
267,Micomeseng,GQ,2022-06-28 06:09:58,2.1462,10.6164,67.01,93,100,0.96
268,Karsiyang,IN,2022-06-28 06:09:58,26.8825,88.2773,63.14,98,98,3.33
269,Kalmunai,LK,2022-06-28 06:09:59,7.4167,81.8167,90.55,50,98,1.79
270,Xining,CN,2022-06-28 06:09:59,36.6167,101.7667,75.79,30,1,2.17
271,Half Moon Bay,US,2022-06-28 06:09:59,37.4636,-122.4286,66.81,84,100,18.41
272,Kathmandu,NP,2022-06-28 06:06:20,27.7167,85.3167,79.02,78,75,3.44
273,Kemijarvi,FI,2022-06-28 06:10:00,66.7131,27.4306,63.64,43,18,10.42
274,Hikone,JP,2022-06-28 06:10:00,35.25,136.25,91.87,54,64,10.4
275,College,US,2022-06-28 06:10:00,64.8569,-147.8028,73.0,51,40,4.61
276,Luanda,AO,2022-06-28 06:09:49,-8.8368,13.2343,71.6,83,75,5.75
277,Bonfim,BR,2022-06-28 06:10:02,3.0833,-59.95,70.97,97,99,2.13
278,Navalmoral De La Mata,ES,2022-06-28 06:10:03,39.8916,-5.5406,67.96,39,0,2.75
279,Kushikino,JP,2022-06-28 06:10:04,31.7167,130.2667,90.09,70,70,11.74
280,Dingzhou,CN,2022-06-28 06:10:04,38.5131,114.9956,88.59,48,44,6.55
281,Limbang,MY,2022-06-28 06:10:05,4.75,115.0,89.71,52,93,6.29
282,Borzna,UA,2022-06-28 06:10:05,51.2546,32.4269,77.65,73,3,7.74
283,Port Macquarie,AU,2022-06-28 06:10:06,-31.4333,152.9167,58.89,67,81,12.1
284,Tandil,AR,2022-06-28 06:10:06,-37.3217,-59.1332,44.69,65,69,7.29
285,Fernandopolis,BR,2022-06-28 06:10:07,-20.2839,-50.2464,60.85,57,58,6.44
286,Makasar,ID,2022-06-28 06:10:07,-5.14,119.4221,87.85,62,20,9.22
287,Tyler,US,2022-06-28 06:07:45,32.3513,-95.3011,80.29,63,0,6.91
288,Leningradskiy,RU,2022-06-28 06:10:08,69.3833,178.4167,44.13,71,50,14.41
289,San Francisco,US,2022-06-28 06:07:46,37.7749,-122.4194,70.68,87,20,18.41
290,Jinchang,CN,2022-06-28 06:10:08,38.4953,102.1739,87.28,16,20,16.31
291,Amapa,BR,2022-06-28 06:10:09,1.0,-52.0,69.67,99,52,0.69
292,Viedma,AR,2022-06-28 06:10:09,-40.8135,-62.9967,46.27,54,91,5.08
293,Timra,SE,2022-06-28 06:10:10,62.487,17.3257,69.67,83,70,4.61
294,Waddan,LY,2022-06-28 06:10:10,29.1614,16.139,85.17,22,0,9.48
295,Lompoc,US,2022-06-28 06:10:11,34.6391,-120.4579,57.52,97,100,6.91
296,Zarubino,RU,2022-06-28 06:10:11,42.63,131.0922,63.14,100,100,6.42
297,Claveria,PH,2022-06-28 06:10:11,18.6074,121.0832,86.77,75,92,2.06
298,Codrington,AU,2022-06-28 06:10:11,-38.2667,141.9667,54.28,61,98,11.61
299,Pangnirtung,CA,2022-06-28 06:10:12,66.1451,-65.7125,38.23,96,100,2.86
300,Tiarei,PF,2022-06-28 06:10:12,-17.5333,-149.3333,78.01,72,6,20.42
301,Camacha,PT,2022-06-28 06:10:12,33.0833,-16.3333,62.02,68,40,13.8
302,Kambove,CD,2022-06-28 06:10:13,-10.8764,26.5969,52.56,81,16,10.54
303,Bulgan,MN,2022-06-28 06:10:13,48.8125,103.5347,83.71,30,39,4.07
304,Dubti,ET,2022-06-28 06:10:14,11.7361,41.0853,95.52,29,74,15.57
305,Kaoma,ZM,2022-06-28 06:10:14,-14.7833,24.8,55.29,71,0,11.36
306,Ulladulla,AU,2022-06-28 06:10:14,-35.35,150.4667,53.76,62,32,4.7
307,Goure,NE,2022-06-28 06:10:15,13.9835,10.2704,80.02,48,22,7.7
308,Asau,RO,2022-06-28 06:10:15,46.4333,26.4,72.52,91,99,4.25
309,Matara,LK,2022-06-28 06:10:15,5.9485,80.5353,84.7,68,99,15.05
310,Zhezkazgan,KZ,2022-06-28 06:10:16,47.8043,67.7144,82.38,20,0,6.71
311,Buchanan,LR,2022-06-28 06:10:16,5.8808,-10.0467,74.98,91,94,4.05
312,Findochty,GB,2022-06-28 06:10:16,57.6974,-2.901,54.91,83,89,23.0
313,Coruripe,BR,2022-06-28 06:10:17,-10.1256,-36.1756,72.81,86,64,11.03
314,Chuy,UY,2022-06-28 06:10:17,-33.6971,-53.4616,50.68,94,100,4.59
315,San Quintin,MX,2022-06-28 06:10:17,30.4833,-115.95,71.17,75,2,4.56
316,Laguna,US,2022-06-28 06:07:42,38.421,-121.4238,79.61,49,0,6.91
317,Martapura,ID,2022-06-28 06:11:18,-3.4167,114.85,84.29,74,40,9.22
318,Rorvik,NO,2022-06-28 06:11:18,64.8621,11.2373,69.78,83,0,2.3
319,Lata,PT,2022-06-28 06:11:19,40.1629,-8.3327,53.08,91,1,2.71
320,Baringo,KE,2022-06-28 06:11:19,0.4667,35.9667,73.45,47,60,9.8
321,Enshi,CN,2022-06-28 06:11:19,30.3,109.4833,89.42,57,84,1.12
322,Ucluelet,CA,2022-06-28 06:11:20,48.9329,-125.5528,59.09,90,87,1.01
323,Cururupu,BR,2022-06-28 06:11:20,-1.8283,-44.8683,72.68,97,98,2.93
324,Louis Trichardt,ZA,2022-06-28 06:11:20,-23.0439,29.9032,51.31,84,92,9.64
325,Hofn,IS,2022-06-28 06:07:24,64.2539,-15.2082,49.14,91,90,7.87
326,Alta Floresta,BR,2022-06-28 06:11:21,-9.8756,-56.0861,62.78,56,0,1.16
327,Aitape,PG,2022-06-28 06:11:21,-3.1374,142.3475,79.95,82,100,6.91
328,Bogorodskoye,RU,2022-06-28 06:11:21,56.55,37.8833,65.66,51,14,10.36
329,Svetlogorsk,BY,2022-06-28 06:11:22,52.6333,29.7333,79.07,68,39,5.26
330,Ejura,GH,2022-06-28 06:11:22,7.3856,-1.3562,71.17,98,94,4.68
331,Vila Franca Do Campo,PT,2022-06-28 06:11:22,37.7167,-25.4333,67.19,87,20,5.5
332,Kidal,ML,2022-06-28 06:11:23,18.4411,1.4078,89.06,29,19,2.08
333,Khani,GE,2022-06-28 06:11:23,41.9563,42.9566,62.17,70,7,4.45
334,Alexandria,EG,2022-06-28 06:09:19,31.2156,29.9553,78.03,65,0,9.82
335,Rostovka,RU,2022-06-28 06:11:23,55.3842,71.8891,60.76,60,98,11.3
336,Kijang,KR,2022-06-28 06:11:23,35.2442,129.2139,76.55,91,100,18.79
337,Yumen,CN,2022-06-28 06:11:24,40.2833,97.2,91.15,13,41,8.23
338,Thai Binh,VN,2022-06-28 06:11:24,20.45,106.3333,99.77,41,59,10.85
339,Nassau,US,2022-06-28 06:11:24,40.7507,-73.5829,69.85,84,0,8.05
340,Brigham City,US,2022-06-28 06:10:03,41.5102,-112.0155,75.22,32,0,14.0
341,Port Lincoln,AU,2022-06-28 06:11:25,-34.7333,135.8667,59.74,60,0,15.35
342,Osinki,RU,2022-06-28 06:11:25,52.8432,49.5132,63.16,68,12,13.71
343,Kalna,IN,2022-06-28 06:11:25,23.2167,88.3667,96.22,46,99,10.0
344,Hervey Bay,AU,2022-06-28 06:11:26,-25.2986,152.8535,64.85,66,80,21.05
345,Trairi,BR,2022-06-28 06:09:47,-3.2778,-39.2689,73.96,91,12,10.85
346,Saint-Leu,RE,2022-06-28 06:11:26,-21.15,55.2833,72.46,65,23,17.9
347,Bay Roberts,CA,2022-06-28 06:11:26,47.5999,-53.2648,62.65,93,75,5.01
348,Touros,BR,2022-06-28 06:11:27,-5.1989,-35.4608,73.02,84,26,15.05
349,Tabas,IR,2022-06-28 06:11:27,33.5959,56.9244,104.22,9,0,4.61
350,Padang,ID,2022-06-28 06:11:27,-0.9492,100.3543,80.65,82,100,2.77
351,Kruisfontein,ZA,2022-06-28 06:11:28,-34.0033,24.7314,53.98,46,0,7.96
352,Alice Town,BS,2022-06-28 06:11:28,25.7167,-79.3,81.75,69,3,9.69
353,Oktyabrskiy,RU,2022-06-28 06:11:28,54.4815,53.471,52.81,62,33,15.66
354,Tessalit,ML,2022-06-28 06:11:29,20.1986,1.0114,91.33,26,76,7.11
355,Bushehr,IR,2022-06-28 06:11:29,28.9684,50.8385,90.81,46,1,15.1
356,Mikhaylov,RU,2022-06-28 06:11:29,54.2292,39.0186,72.43,76,1,12.84
357,Port Hardy,CA,2022-06-28 06:11:29,50.6996,-127.4199,57.85,96,98,4.56
358,Galesong,ID,2022-06-28 06:11:30,-5.3166,119.3661,87.82,70,59,11.07
359,Sioux Lookout,CA,2022-06-28 06:06:55,50.1001,-91.917,54.45,96,91,6.82
360,Komsomolskiy,UZ,2022-06-28 06:11:30,40.4272,71.7189,95.72,23,0,13.8
361,Novo Oriente,BR,2022-06-28 06:12:31,-5.5344,-40.7742,72.39,64,34,8.3
362,Port Moresby,PG,2022-06-28 06:12:05,-9.4431,147.1797,87.22,66,40,17.27
363,Bima,ID,2022-06-28 06:12:31,-8.4667,118.7167,87.82,51,95,7.85
364,Ilabaya,PE,2022-06-28 06:12:31,-17.4208,-70.5133,60.39,43,27,4.07
365,Praia Da Vitoria,PT,2022-06-28 06:12:32,38.7333,-27.0667,65.75,77,50,9.98
366,Ahome,MX,2022-06-28 06:12:32,25.9167,-109.1833,82.98,59,97,3.58
367,Shingu,JP,2022-06-28 06:12:32,33.7333,135.9833,87.49,55,31,11.88
368,Punakha,BT,2022-06-28 06:12:33,27.5837,89.8598,78.71,85,94,4.43
369,Balclutha,NZ,2022-06-28 06:12:33,-46.2339,169.75,40.98,92,97,2.13
370,Bubaque,GW,2022-06-28 06:12:33,11.2833,-15.8333,80.4,80,100,10.11
371,Aklavik,CA,2022-06-28 06:12:34,68.2191,-135.0107,62.71,48,98,11.18
372,Ballina,AU,2022-06-28 06:08:24,-28.8667,153.5667,60.78,83,100,16.33
373,Flin Flon,CA,2022-06-28 06:12:34,54.7682,-101.865,45.84,66,42,5.55
374,Adrar,MR,2022-06-28 06:12:35,20.5022,-10.0711,83.12,18,5,12.64
375,Mayumba,GA,2022-06-28 06:12:35,-3.432,10.6554,69.62,94,55,6.13
376,Marawi,PH,2022-06-28 06:12:35,7.9986,124.2928,78.85,81,99,5.55
377,Chifeng,CN,2022-06-28 06:07:47,42.2683,118.9636,69.53,75,100,12.24
378,Impfondo,CG,2022-06-28 06:12:35,1.6381,18.0667,70.43,96,100,2.1
379,Sinop,TR,2022-06-28 06:12:36,41.7711,34.8709,61.23,89,99,1.66
380,Ugoofaaru,MV,2022-06-28 06:12:36,5.6667,73.0,83.1,76,93,12.73
381,Kaeo,NZ,2022-06-28 06:12:36,-35.1,173.7833,57.33,95,100,6.15
382,Misratah,LY,2022-06-28 06:12:37,32.3754,15.0925,82.54,55,0,10.8
383,Faya,SA,2022-06-28 06:12:37,18.3851,42.4509,79.32,18,48,10.29
384,Lingao,CN,2022-06-28 06:12:37,19.9103,109.6859,93.65,55,10,3.15
385,Sola,VU,2022-06-28 06:12:38,-13.8833,167.55,80.91,79,76,15.9
386,Namatanai,PG,2022-06-28 06:07:53,-3.6667,152.4333,84.33,64,80,8.16
387,Ornskoldsvik,SE,2022-06-28 06:12:38,63.2909,18.7153,69.3,67,4,4.65
388,Chute-Aux-Outardes,CA,2022-06-28 06:12:38,49.1168,-68.399,53.87,75,16,10.56
389,Pimentel,PE,2022-06-28 06:12:39,-6.8367,-79.9342,61.27,92,55,8.32
390,Pristen,RU,2022-06-28 06:12:39,51.2355,36.6959,76.6,76,0,8.63
391,Mazyr,BY,2022-06-28 06:12:39,52.0495,29.2456,78.21,63,69,2.8
392,Sept-Iles,CA,2022-06-28 06:12:39,50.2001,-66.3821,55.06,98,60,1.01
393,Sindgi,IN,2022-06-28 06:12:40,16.9167,76.2333,85.15,55,98,16.75
394,Kenai,US,2022-06-28 06:12:40,60.5544,-151.2583,57.29,85,0,8.05
395,Rawah,IQ,2022-06-28 06:12:40,34.4816,41.9093,91.45,19,0,6.71
396,Magnitka,RU,2022-06-28 06:12:41,55.3475,59.6961,43.27,80,100,8.16
397,Mattru,SL,2022-06-28 06:12:41,7.6244,-11.8332,72.99,98,90,0.96
398,Puerto Colombia,CO,2022-06-28 06:12:42,10.9878,-74.9547,77.09,85,41,11.77
399,Kutum,SD,2022-06-28 06:12:42,14.2,24.6667,82.15,37,88,2.84
400,Hamilton,US,2022-06-28 06:12:26,39.1834,-84.5333,63.81,63,0,1.01
401,Cabedelo,BR,2022-06-28 06:12:33,-6.9811,-34.8339,72.27,84,94,13.73
402,Belaya Gora,RU,2022-06-28 06:12:43,68.5333,146.4167,44.46,84,100,7.31
403,Schruns,AT,2022-06-28 06:12:43,47.0709,9.9475,56.23,100,100,0.92
404,Bathsheba,BB,2022-06-28 06:12:43,13.2167,-59.5167,81.21,78,40,20.71
405,Koslan,RU,2022-06-28 06:13:43,63.4564,48.8989,50.85,46,82,13.15
406,Boysun,UZ,2022-06-28 06:13:44,38.2061,67.1986,94.01,12,0,6.85
407,Nemuro,JP,2022-06-28 06:13:44,43.3236,145.575,57.0,97,100,11.74
408,Yining,CN,2022-06-28 06:13:45,29.0361,114.5636,83.84,81,100,3.47
409,Bambous Virieux,MU,2022-06-28 06:13:45,-20.3428,57.7575,74.21,68,75,16.11
410,Sovetskiy,RU,2022-06-28 06:13:45,61.3614,63.5842,49.5,58,85,11.72
411,Aktau,KZ,2022-06-28 06:13:45,43.65,51.2,93.78,37,20,12.01
412,Serenje,ZM,2022-06-28 06:13:46,-13.2325,30.2352,51.39,88,100,11.05
413,Maddur,IN,2022-06-28 06:13:46,12.6,77.0667,83.21,53,98,15.82
414,Paoua,CF,2022-06-28 06:13:46,7.2427,16.4406,66.18,98,100,3.53
415,Petropavlovsk-Kamchatskiy,RU,2022-06-28 06:13:47,53.0452,158.6483,63.19,59,20,15.66
416,Mahwa,IN,2022-06-28 06:13:47,27.0471,76.9288,106.65,28,57,6.98
417,Ponta Delgada,PT,2022-06-28 06:13:47,37.7333,-25.6667,67.5,77,75,5.75
418,Jamai,IN,2022-06-28 06:13:47,22.2,78.5833,86.22,57,97,4.9
419,Saint Anthony,US,2022-06-28 06:13:48,45.0205,-93.218,72.55,53,0,8.05
420,Ixtapa,MX,2022-06-28 06:13:48,20.7,-105.2,79.83,83,40,0.0
421,Durango,MX,2022-06-28 06:12:36,24.8333,-104.8333,64.85,64,82,5.14
422,Terney,RU,2022-06-28 06:13:48,45.0503,136.6092,57.67,99,100,8.59
423,Lantawan,PH,2022-06-28 06:13:49,10.6167,123.9833,81.64,73,100,6.67
424,Lagoa,PT,2022-06-28 06:13:49,39.05,-27.9833,63.88,82,8,10.27
425,Swan River,CA,2022-06-28 06:13:49,52.1058,-101.2676,57.09,62,89,4.61
426,Hami,CN,2022-06-28 06:13:50,42.8,93.45,100.22,12,98,15.48
427,Labuhan,ID,2022-06-28 06:13:50,-6.8844,112.2051,82.67,69,81,2.89
428,Valparaiso,CL,2022-06-28 06:13:50,-33.0393,-71.6273,52.48,84,0,4.61
429,Acari,PE,2022-06-28 06:13:51,-15.4311,-74.6158,63.39,74,63,3.13
430,Igunga,TZ,2022-06-28 06:13:51,-4.2833,33.8833,67.71,48,32,13.13
431,Baiyin,CN,2022-06-28 06:13:51,36.5583,104.2081,84.52,17,4,21.09
432,Milkovo,RU,2022-06-28 06:13:52,54.7167,158.6167,76.77,40,0,4.5
433,The Valley,AI,2022-06-28 06:13:52,18.217,-63.0578,81.82,77,73,20.96
434,Okha,RU,2022-06-28 06:13:52,53.5739,142.9478,52.0,85,50,13.76
435,Hanzhong,CN,2022-06-28 06:13:53,33.0728,107.0303,95.99,28,1,7.09
436,Skhisma,GR,2022-06-28 06:13:53,35.2667,25.7167,81.84,65,2,21.54
437,Tura,IN,2022-06-28 06:13:53,25.5198,90.2201,74.48,96,100,4.32
438,Bouna,CI,2022-06-28 06:13:53,9.2667,-3.0,71.62,94,95,4.52
439,Limbe,CM,2022-06-28 06:13:54,4.0242,9.2149,75.96,92,100,3.89
440,Kawalu,ID,2022-06-28 06:13:54,-7.3817,108.2082,79.0,65,97,5.53
441,Caravelas,BR,2022-06-28 06:13:54,-17.7125,-39.2481,67.64,67,19,7.54
442,Xai-Xai,MZ,2022-06-28 06:13:55,-25.0519,33.6442,67.82,70,89,13.15
443,Diamantino,BR,2022-06-28 06:13:55,-14.4086,-56.4461,64.89,49,0,4.41
444,Coahuayana,MX,2022-06-28 06:13:56,18.7333,-103.6833,77.16,93,91,1.7
445,Kotelnich,RU,2022-06-28 06:13:56,58.3089,48.348,53.51,50,13,12.3
446,Morondava,MG,2022-06-28 06:13:56,-20.2833,44.2833,73.09,46,0,21.07
447,Maragogi,BR,2022-06-28 06:13:57,-9.0122,-35.2225,74.62,85,36,11.59
448,Careiro Da Varzea,BR,2022-06-28 06:13:57,-3.2003,-59.8119,77.61,88,93,4.59
449,Bell Ville,AR,2022-06-28 06:14:57,-32.6259,-62.6887,48.67,96,100,4.32
450,Chipata,ZM,2022-06-28 06:14:58,-13.6333,32.65,56.41,81,67,11.5
451,Klaksvik,FO,2022-06-28 06:14:58,62.2266,-6.589,50.92,93,97,15.93
452,Alofi,NU,2022-06-28 06:14:58,-19.0595,-169.9187,79.45,81,11,11.14
453,Suclayin,PH,2022-06-28 06:14:59,15.7568,121.5503,79.03,94,100,5.28
454,Wete,TZ,2022-06-28 06:14:59,-5.0559,39.7294,78.91,65,4,14.61
455,Harlingen,US,2022-06-28 06:14:59,26.1906,-97.6961,80.69,93,40,4.61
456,Yeppoon,AU,2022-06-28 06:15:00,-23.1333,150.7333,71.38,71,47,19.64
457,Letlhakane,BW,2022-06-28 06:15:00,-21.4167,25.5833,52.25,69,79,17.11
458,Arman,RU,2022-06-28 06:15:00,59.7,150.1667,66.02,77,33,6.24
459,Cockburn Town,TC,2022-06-28 06:15:01,21.4612,-71.1419,82.38,74,100,20.29
460,Soltsy,RU,2022-06-28 06:15:01,58.1239,30.3238,76.35,53,49,5.55
461,Puerto Escondido,MX,2022-06-28 06:15:02,15.85,-97.0667,79.05,83,36,2.82
462,Bergerac,FR,2022-06-28 06:15:03,44.8333,0.5,57.78,100,0,4.61
463,Margate,GB,2022-06-28 06:15:04,51.3813,1.3862,61.7,79,4,1.99
464,Pitimbu,BR,2022-06-28 06:15:04,-7.4706,-34.8086,72.19,82,82,13.96
465,Priiskovyy,RU,2022-06-28 06:15:05,51.9333,116.6333,88.03,31,35,3.67
466,Simao,CN,2022-06-28 06:15:05,22.7886,100.9748,79.56,61,92,4.88
467,Olafsvik,IS,2022-06-28 06:15:06,64.8945,-23.7142,46.26,86,100,11.61
468,Oktyabrskoye,RU,2022-06-28 06:15:07,43.0645,44.7417,66.34,82,75,2.24
469,Mangrol,IN,2022-06-28 06:15:07,21.1167,70.1167,86.81,71,93,13.53
470,Antofagasta,CL,2022-06-28 06:15:07,-23.65,-70.4,56.48,63,90,7.83
471,Oda,JP,2022-06-28 06:15:08,35.1833,132.5,83.5,65,18,8.72
472,Necochea,AR,2022-06-28 06:15:08,-38.5473,-58.7368,45.57,68,56,10.31
473,Brae,GB,2022-06-28 06:15:08,60.3964,-1.353,55.85,79,36,16.06
474,Greenwood,US,2022-06-28 06:11:02,34.1668,-82.1165,70.63,60,100,0.0
475,Mantua,IT,2022-06-28 06:15:09,45.1667,10.7833,81.21,71,30,1.01
476,Sterling,US,2022-06-28 06:15:09,39.0062,-77.4286,69.15,70,0,6.91
477,Sakakah,SA,2022-06-28 06:15:09,29.9697,40.2064,87.58,17,0,0.98
478,Komatipoort,ZA,2022-06-28 06:15:10,-25.4332,31.9548,59.47,87,43,4.43
479,Sur,OM,2022-06-28 06:15:10,22.5667,59.5289,95.32,50,30,2.73
480,Hastings,GB,2022-06-28 06:15:10,50.8552,0.5729,62.98,73,13,10.58
481,Formosa,AR,2022-06-28 06:11:07,-26.1775,-58.1781,62.58,100,0,6.91
482,Galle,LK,2022-06-28 06:15:11,6.0367,80.217,82.47,76,97,15.41
483,Portales,US,2022-06-28 06:15:11,34.1862,-103.3344,73.09,72,87,7.99
484,Los Llanos De Aridane,ES,2022-06-28 06:15:11,28.6585,-17.9182,64.15,82,100,14.97
485,Kiama,AU,2022-06-28 06:15:12,-34.6833,150.8667,61.38,67,66,1.99
486,Buala,SB,2022-06-28 06:15:12,-8.145,159.5921,81.43,77,77,5.37
487,Taksimo,RU,2022-06-28 06:15:12,56.3444,114.8794,84.04,42,48,2.64
488,Nahavand,IR,2022-06-28 06:15:12,34.1885,48.377,82.53,10,0,1.21
489,Broome,US,2022-06-28 06:15:13,42.2506,-75.833,59.38,80,100,6.91
490,Muros,ES,2022-06-28 06:15:13,42.7762,-9.0603,48.83,94,2,3.85
491,Novyy Urengoy,RU,2022-06-28 06:13:42,66.0833,76.6333,54.97,76,100,19.8
492,Trincomalee,LK,2022-06-28 06:15:14,8.5711,81.2335,89.74,55,93,12.75
493,Backo Petrovo Selo,RS,2022-06-28 06:15:14,45.7081,20.0753,78.1,48,68,5.28
494,Weihe,CN,2022-06-28 06:16:14,32.9952,105.3247,87.96,26,17,3.27
495,Mackenzie,CA,2022-06-28 06:16:15,55.2999,-123.1698,62.82,63,0,5.75
496,Vanavara,RU,2022-06-28 06:16:15,60.34,102.2797,84.45,41,98,1.54
497,Santona,ES,2022-06-28 06:11:20,43.4439,-3.4576,58.06,80,1,3.76
498,Shimoda,JP,2022-06-28 06:16:15,34.6667,138.95,79.16,77,81,17.29
499,Hokitika,NZ,2022-06-28 06:16:16,-42.7167,170.9667,48.24,79,100,2.55
500,La Tijera,MX,2022-06-28 06:16:16,19.9,-104.4,60.33,91,96,1.12
501,Valleyview,CA,2022-06-28 06:16:16,55.0667,-117.2859,53.64,71,68,5.75
502,Chimbote,PE,2022-06-28 06:14:49,-9.0853,-78.5783,62.85,83,87,7.27
503,Asfi,MA,2022-06-28 06:16:17,32.2994,-9.2372,64.04,78,0,13.09
504,Montesarchio,IT,2022-06-28 06:16:17,41.0654,14.6402,86.68,22,60,1.25
505,Usinsk,RU,2022-06-28 06:16:18,65.9939,57.5281,51.62,56,80,22.95
506,Coquimbo,CL,2022-06-28 06:16:18,-29.9533,-71.3436,49.73,81,0,10.36
507,Puerto Carreno,CO,2022-06-28 06:16:18,6.189,-67.4859,73.13,94,99,3.98
508,Taoudenni,ML,2022-06-28 06:16:18,22.6783,-3.9836,93.09,9,2,10.02
509,Clovis,US,2022-06-28 06:16:19,36.8252,-119.7029,87.69,25,0,12.66
510,Filingue,NE,2022-06-28 06:16:19,14.3521,3.3168,88.75,44,94,5.55
511,Severnyy,RU,2022-06-28 06:16:19,50.677,36.5532,80.64,57,0,6.71
512,Fort Nelson,CA,2022-06-28 06:16:20,58.8053,-122.7002,56.79,82,20,0.0
513,Cidreira,BR,2022-06-28 06:16:20,-30.1811,-50.2056,59.85,85,100,2.68
514,Paita,PE,2022-06-28 06:16:20,-5.0892,-81.1144,62.44,85,0,8.86
515,Aktas,KZ,2022-06-28 06:16:21,49.7789,72.9608,76.75,31,0,10.0
516,Santiago De Chuco,PE,2022-06-28 06:16:21,-8.15,-78.1833,46.44,70,10,1.99
517,Sao Joao Da Barra,BR,2022-06-28 06:16:21,-21.6403,-41.0511,61.84,78,35,5.12
518,Leh,IN,2022-06-28 06:14:54,34.1667,77.5833,69.42,23,0,3.87
519,Cap Malheureux,MU,2022-06-28 06:16:22,-19.9842,57.6142,73.47,56,67,10.0
520,Tanout,NE,2022-06-28 06:16:22,14.9709,8.8879,85.42,44,75,13.96
521,Juarez,MX,2022-06-28 06:15:34,31.7333,-106.4833,81.28,41,20,8.01
522,Baykit,RU,2022-06-28 06:16:22,61.67,96.37,61.75,97,100,7.56
523,Pangody,RU,2022-06-28 06:16:22,65.85,74.4859,50.63,87,100,25.12
524,Taltal,CL,2022-06-28 06:16:23,-25.4,-70.4833,58.89,64,19,3.98
525,Boa Vista,BR,2022-06-28 06:16:23,2.8197,-60.6733,73.38,94,75,2.3
526,Paka,MY,2022-06-28 06:16:23,4.6374,103.4368,89.53,70,40,6.91
527,Mount Holly,US,2022-06-28 06:16:24,35.2982,-81.0159,73.92,88,100,111.62
528,Virginia Beach,US,2022-06-28 06:13:09,36.8529,-75.978,71.65,94,100,14.97
529,Ossora,RU,2022-06-28 06:16:24,59.2353,163.0719,61.66,73,40,8.43
530,Ukiah,US,2022-06-28 06:12:28,39.1502,-123.2078,69.69,52,0,0.0
531,Hualmay,PE,2022-06-28 06:16:24,-11.0964,-77.6139,61.34,87,84,9.42
532,Tromso,NO,2022-06-28 06:16:25,69.6496,18.957,68.02,68,0,2.3
533,Atlantic City,US,2022-06-28 06:12:44,39.3643,-74.4229,71.78,95,100,5.75
534,Athni,IN,2022-06-28 06:16:25,16.7333,75.0667,85.55,50,95,17.81
